Name,latitude,longitude
Jurong Central Park,1.337442349431382,103.707560608773
Kallang Riverside Park,1.306939238662946,103.8705604948596
Kent Ridge Park,1.283992914624747,103.7905766711218
MacRitchie Reservoir Park,1.342129189993283,103.8345816256707
Mount Faber Park,1.274619997596972,103.8165499186604
Pasir Ris Town Park,1.371009932213502,103.9528299359513
Kranji Resevoir Park,1.439122404064925,103.7380629205474
Punggol Park,1.376857626005001,103.8983575372218
Punggol Waterway Park,1.407593451689727,103.9067693911891
Singapore Botanic Gardens,1.311048144011875,103.8162505929593
Sembawang Park,1.461179913604916,103.8364799623345
Toa Payoh Town Park,1.330619991755844,103.8484399279339
Yishun Park,1.42444997838137,103.8426399336409
Ang Mo Kio Town Garden West,1.374115744861203,103.8426981047053
Bishan - Ang Mo Kio Park,1.36438131796899,103.8380676598611
Bukit Batok Nature Park,1.350220652476509,103.7644539615665
Changi Beach Park,1.390700983664927,103.9930094367432
Sun Plaza Park,1.359049993274244,103.9437699279742
Telok Blangah Hill Park,1.278509915772337,103.8128899707719
Tiong Bahru Park,1.287589986421333,103.8243399119128
West Coast Park,1.294702573789405,103.7643393607882
Woodlands Town Garden,1.437809918298392,103.7701899536251
Raffles Place Park,1.28395999707691,103.8515699804217
Tanjong Pagar RICOH Park,1.276539989504184,103.8457099407903
The Southern Ridges,1.279876995770767,103.8048341159666
War Memorial Park,1.29281994347804,103.8548099178537
Youth Olympic Park,1.289056409832788,103.8604244660383
Dairy Farm Nature Park,1.361845202563171,103.7725644043802
Fort Canning Park,1.294789980226327,103.8461499554014
Zhenghua Park,1.367961669792198,103.7782886264024
Admiralty Park,1.442505986574049,103.7844101611539
Bedok Town Park,1.335707780203995,103.9264196203059
Esplanade Park,1.28946526299466,103.8536971910362
Pearl's Hill City Park,1.284563987954494,103.8399277261468
Sengkang Riverside Park,1.39952434256263,103.8878230870544
Bukit Batok Town Park,1.357316196031144,103.755549740756
Hort Park - The Gardening Hub,1.278839343839523,103.7997789008482
One-North Park,1.303491325231264,103.7907745612621
Lower Seletar Reservoir Park,1.410279971105658,103.8326799537331
Tampines Eco Green,1.363788743862203,103.9483065091815
Woodlands Waterfront Park,1.452813754790663,103.7799361924831
Ang Mo Kio Town Garden East,1.370625694501962,103.8506380445593
Bedok Reservoir Park,1.342479934987691,103.923099989145
Choa Chu Kang Park,1.387737263248452,103.7471915090263
East Coast Park,1.303168818699514,103.9206052235485
Clementi Woods Park,1.299923945912669,103.767412179965
Dhoby Ghaut Green,1.298363517403817,103.8459227234039
Hong Lim Park - Speaker's Corner,1.286568880224814,103.8465608185065
Istana Park,1.29917995828159,103.843909995391
National Orchid Garden,1.312670183418137,103.8138935312538
Pasir Ris Park,1.37863996441683,103.9506599950251
Pulau Ubin,1.408689949740593,103.9654199873669
